{
"type": "FeatureCollection",
"name": "subway-stops",
"crs": { "type": "name", "properties": { "name": "urn:ogc:def:crs:OGC:1.3:CRS84" } },
"features": [
{ "type": "Feature", "properties": { "LOCATION_N": "Kipling", "STATUS": "Existing", "TECHNOLOGY": "Subway", "NAME": "Line 2: Bloor-Danforth Subway" }, "geometry": { "type": "Point", "coordinates": [ -79.536270602586825, 43.636935283004831 ] } },
{ "type": "Feature", "properties": { "LOCATION_N": "Islington", "STATUS": "Existing", "TECHNOLOGY": "Subway", "NAME": "Line 2: Bloor-Danforth Subway" }, "geometry": { "type": "Point", "coordinates": [ -79.524588486033721, 43.645325193340057 ] } },
{ "type": "Feature", "properties": { "LOCATION_N": "Royal York", "STATUS": "Existing", "TECHNOLOGY": "Subway", "NAME": "Line 2: Bloor-Danforth Subway" }, "geometry": { "type": "Point", "coordinates": [ -79.511280169598422, 43.648114600956191 ] } },
{ "type": "Feature", "properties": { "LOCATION_N": "Old Mill", "STATUS": "Existing", "TECHNOLOGY": "Subway", "NAME": "Line 2: Bloor-Danforth Subway" }, "geometry": { "type": "Point", "coordinates": [ -79.49508335682637, 43.650074916488038 ] } },
{ "type": "Feature", "properties": { "LOCATION_N": "Jane", "STATUS": "Existing", "TECHNOLOGY": "Subway", "NAME": "Line 2: Bloor-Danforth Subway" }, "geometry": { "type": "Point", "coordinates": [ -79.4844514811994, 43.649787641454878 ] } },
{ "type": "Feature", "properties": { "LOCATION_N": "Runnymede", "STATUS": "Existing", "TECHNOLOGY": "Subway", "NAME": "Line 2: Bloor-Danforth Subway" }, "geometry": { "type": "Point", "coordinates": [ -79.476195820450599, 43.651655190996586 ] } },
{ "type": "Feature", "properties": { "LOCATION_N": "High Park", "STATUS": "Existing", "TECHNOLOGY": "Subway", "NAME": "Line 2: Bloor-Danforth Subway" }, "geometry": { "type": "Point", "coordinates": [ -79.466212498203802, 43.654049948971547 ] } },
{ "type": "Feature", "properties": { "LOCATION_N": "Keele", "STATUS": "Existing", "TECHNOLOGY": "Subway", "NAME": "Line 2: Bloor-Danforth Subway" }, "geometry": { "type": "Point", "coordinates": [ -79.45984285245828, 43.655466549183522 ] } },
{ "type": "Feature", "properties": { "LOCATION_N": "Dundas West", "STATUS": "Existing", "TECHNOLOGY": "Subway", "NAME": "Line 2: Bloor-Danforth Subway" }, "geometry": { "type": "Point", "coordinates": [ -79.452400791600013, 43.657172114243714 ] } },
{ "type": "Feature", "properties": { "LOCATION_N": "Lansdowne", "STATUS": "Existing", "TECHNOLOGY": "Subway", "NAME": "Line 2: Bloor-Danforth Subway" }, "geometry": { "type": "Point", "coordinates": [ -79.442612913080424, 43.659117890596427 ] } },
{ "type": "Feature", "properties": { "LOCATION_N": "Dufferin", "STATUS": "Existing", "TECHNOLOGY": "Subway", "NAME": "Line 2: Bloor-Danforth Subway" }, "geometry": { "type": "Point", "coordinates": [ -79.435478691509871, 43.660242468356728 ] } },
{ "type": "Feature", "properties": { "LOCATION_N": "Ossington", "STATUS": "Existing", "TECHNOLOGY": "Subway", "NAME": "Line 2: Bloor-Danforth Subway" }, "geometry": { "type": "Point", "coordinates": [ -79.425927444631284, 43.662416126936151 ] } },
{ "type": "Feature", "properties": { "LOCATION_N": "Christie", "STATUS": "Existing", "TECHNOLOGY": "Subway", "NAME": "Line 2: Bloor-Danforth Subway" }, "geometry": { "type": "Point", "coordinates": [ -79.418335317030611, 43.664068994978471 ] } },
{ "type": "Feature", "properties": { "LOCATION_N": "Bathurst", "STATUS": "Existing", "TECHNOLOGY": "Subway", "NAME": "Line 2: Bloor-Danforth Subway" }, "geometry": { "type": "Point", "coordinates": [ -79.411479181006342, 43.665716478231474 ] } },
{ "type": "Feature", "properties": { "LOCATION_N": "St. George", "STATUS": "Existing", "TECHNOLOGY": "Subway", "NAME": "Line 1: Yonge-University Subway" }, "geometry": { "type": "Point", "coordinates": [ -79.399296390330463, 43.668274801511551 ] } },
{ "type": "Feature", "properties": { "LOCATION_N": "Bay", "STATUS": "Existing", "TECHNOLOGY": "Subway", "NAME": "Line 2: Bloor-Danforth Subway" }, "geometry": { "type": "Point", "coordinates": [ -79.389857500590736, 43.670206372188794 ] } },
{ "type": "Feature", "properties": { "LOCATION_N": "Bloor-Yonge", "STATUS": "Existing", "TECHNOLOGY": "Subway", "NAME": "Line 1: Yonge-University Subway" }, "geometry": { "type": "Point", "coordinates": [ -79.385709721085661, 43.670995266307024 ] } },
{ "type": "Feature", "properties": { "LOCATION_N": "Sherbourne", "STATUS": "Existing", "TECHNOLOGY": "Subway", "NAME": "Line 2: Bloor-Danforth Subway" }, "geometry": { "type": "Point", "coordinates": [ -79.376835211685162, 43.672353882005197 ] } },
{ "type": "Feature", "properties": { "LOCATION_N": "Castle Frank", "STATUS": "Existing", "TECHNOLOGY": "Subway", "NAME": "Line 2: Bloor-Danforth Subway" }, "geometry": { "type": "Point", "coordinates": [ -79.368485581310125, 43.673858499499723 ] } },
{ "type": "Feature", "properties": { "LOCATION_N": "Broadview", "STATUS": "Existing", "TECHNOLOGY": "Subway", "NAME": "Line 2: Bloor-Danforth Subway" }, "geometry": { "type": "Point", "coordinates": [ -79.35877574388546, 43.676829925936168 ] } },
{ "type": "Feature", "properties": { "LOCATION_N": "Chester", "STATUS": "Existing", "TECHNOLOGY": "Subway", "NAME": "Line 2: Bloor-Danforth Subway" }, "geometry": { "type": "Point", "coordinates": [ -79.352246275759441, 43.678341350088644 ] } },
{ "type": "Feature", "properties": { "LOCATION_N": "Pape", "STATUS": "Existing", "TECHNOLOGY": "Subway", "NAME": "Line 2: Bloor-Danforth Subway" }, "geometry": { "type": "Point", "coordinates": [ -79.345165324151381, 43.679732318754311 ] } },
{ "type": "Feature", "properties": { "LOCATION_N": "Donlands", "STATUS": "Existing", "TECHNOLOGY": "Subway", "NAME": "Line 2: Bloor-Danforth Subway" }, "geometry": { "type": "Point", "coordinates": [ -79.337771023887939, 43.681175708243551 ] } },
{ "type": "Feature", "properties": { "LOCATION_N": "Greenwood", "STATUS": "Existing", "TECHNOLOGY": "Subway", "NAME": "Line 2: Bloor-Danforth Subway" }, "geometry": { "type": "Point", "coordinates": [ -79.330273211062135, 43.682802188925606 ] } },
{ "type": "Feature", "properties": { "LOCATION_N": "Coxwell", "STATUS": "Existing", "TECHNOLOGY": "Subway", "NAME": "Line 2: Bloor-Danforth Subway" }, "geometry": { "type": "Point", "coordinates": [ -79.323088540665751, 43.684324079615763 ] } },
{ "type": "Feature", "properties": { "LOCATION_N": "Woodbine", "STATUS": "Existing", "TECHNOLOGY": "Subway", "NAME": "Line 2: Bloor-Danforth Subway" }, "geometry": { "type": "Point", "coordinates": [ -79.312976803193521, 43.686541223694469 ] } },
{ "type": "Feature", "properties": { "LOCATION_N": "Main Street", "STATUS": "Existing", "TECHNOLOGY": "Subway", "NAME": "Line 2: Bloor-Danforth Subway" }, "geometry": { "type": "Point", "coordinates": [ -79.302004105140668, 43.688973466935266 ] } },
{ "type": "Feature", "properties": { "LOCATION_N": "Victoria Park", "STATUS": "Existing", "TECHNOLOGY": "Subway", "NAME": "Line 2: Bloor-Danforth Subway" }, "geometry": { "type": "Point", "coordinates": [ -79.289438284553682, 43.694612572723209 ] } },
{ "type": "Feature", "properties": { "LOCATION_N": "Warden", "STATUS": "Existing", "TECHNOLOGY": "Subway", "NAME": "Line 2: Bloor-Danforth Subway" }, "geometry": { "type": "Point", "coordinates": [ -79.279193339485019, 43.711177692229008 ] } },
{ "type": "Feature", "properties": { "LOCATION_N": "Kennedy", "STATUS": "Existing", "TECHNOLOGY": "Subway", "NAME": "Line 2: Bloor-Danforth Subway" }, "geometry": { "type": "Point", "coordinates": [ -79.264520630544709, 43.732256837952335 ] } },
{ "type": "Feature", "properties": { "LOCATION_N": "Union", "STATUS": "Existing", "TECHNOLOGY": "Subway", "NAME": "Line 1: Yonge-University Subway" }, "geometry": { "type": "Point", "coordinates": [ -79.37912344177262, 43.646013506538822 ] } },
{ "type": "Feature", "properties": { "LOCATION_N": "St. Andrew", "STATUS": "Existing", "TECHNOLOGY": "Subway", "NAME": "Line 1: Yonge-University Subway" }, "geometry": { "type": "Point", "coordinates": [ -79.384783698386784, 43.647653874290143 ] } },
{ "type": "Feature", "properties": { "LOCATION_N": "King", "STATUS": "Existing", "TECHNOLOGY": "Subway", "NAME": "Line 1: Yonge-University Subway" }, "geometry": { "type": "Point", "coordinates": [ -79.377895473142402, 43.649140960067072 ] } },
{ "type": "Feature", "properties": { "LOCATION_N": "Osgoode", "STATUS": "Existing", "TECHNOLOGY": "Subway", "NAME": "Line 1: Yonge-University Subway" }, "geometry": { "type": "Point", "coordinates": [ -79.386606742061375, 43.650847824606622 ] } },
{ "type": "Feature", "properties": { "LOCATION_N": "Queen", "STATUS": "Existing", "TECHNOLOGY": "Subway", "NAME": "Line 1: Yonge-University Subway" }, "geometry": { "type": "Point", "coordinates": [ -79.379244521010662, 43.652430796800104 ] } },
{ "type": "Feature", "properties": { "LOCATION_N": "St. Patrick", "STATUS": "Existing", "TECHNOLOGY": "Subway", "NAME": "Line 1: Yonge-University Subway" }, "geometry": { "type": "Point", "coordinates": [ -79.388293931267683, 43.654785357256934 ] } },
{ "type": "Feature", "properties": { "LOCATION_N": "Dundas", "STATUS": "Existing", "TECHNOLOGY": "Subway", "NAME": "Line 1: Yonge-University Subway" }, "geometry": { "type": "Point", "coordinates": [ -79.380902458791866, 43.656318903471302 ] } },
{ "type": "Feature", "properties": { "LOCATION_N": "Queen's Park", "STATUS": "Existing", "TECHNOLOGY": "Subway", "NAME": "Line 1: Yonge-University Subway" }, "geometry": { "type": "Point", "coordinates": [ -79.390454511455459, 43.659849395794915 ] } },
{ "type": "Feature", "properties": { "LOCATION_N": "College", "STATUS": "Existing", "TECHNOLOGY": "Subway", "NAME": "Line 1: Yonge-University Subway" }, "geometry": { "type": "Point", "coordinates": [ -79.383130622429377, 43.661444833138397 ] } },
{ "type": "Feature", "properties": { "LOCATION_N": "Wellesley", "STATUS": "Existing", "TECHNOLOGY": "Subway", "NAME": "Line 1: Yonge-University Subway" }, "geometry": { "type": "Point", "coordinates": [ -79.383515803306835, 43.665259816466865 ] } },
{ "type": "Feature", "properties": { "LOCATION_N": "Museum", "STATUS": "Existing", "TECHNOLOGY": "Subway", "NAME": "Line 1: Yonge-University Subway" }, "geometry": { "type": "Point", "coordinates": [ -79.393554801086751, 43.66736028010034 ] } },
{ "type": "Feature", "properties": { "LOCATION_N": "Rosedale", "STATUS": "Existing", "TECHNOLOGY": "Subway", "NAME": "Line 1: Yonge-University Subway" }, "geometry": { "type": "Point", "coordinates": [ -79.388512801231315, 43.677087178815889 ] } },
{ "type": "Feature", "properties": { "LOCATION_N": "Summerhill", "STATUS": "Existing", "TECHNOLOGY": "Subway", "NAME": "Line 1: Yonge-University Subway" }, "geometry": { "type": "Point", "coordinates": [ -79.391234448358546, 43.683333859000228 ] } },
{ "type": "Feature", "properties": { "LOCATION_N": "St. Clair", "STATUS": "Existing", "TECHNOLOGY": "Subway", "NAME": "Line 1: Yonge-University Subway" }, "geometry": { "type": "Point", "coordinates": [ -79.393389345790268, 43.688293850972698 ] } },
{ "type": "Feature", "properties": { "LOCATION_N": "Davisville", "STATUS": "Existing", "TECHNOLOGY": "Subway", "NAME": "Line 1: Yonge-University Subway" }, "geometry": { "type": "Point", "coordinates": [ -79.397255739541109, 43.697977915703376 ] } },
{ "type": "Feature", "properties": { "LOCATION_N": "Eglinton", "STATUS": "Existing", "TECHNOLOGY": "Subway", "NAME": "Line 1: Yonge-University Subway" }, "geometry": { "type": "Point", "coordinates": [ -79.398426730610481, 43.706718328728556 ] } },
{ "type": "Feature", "properties": { "LOCATION_N": "Lawrence", "STATUS": "Existing", "TECHNOLOGY": "Subway", "NAME": "Line 1: Yonge-University Subway" }, "geometry": { "type": "Point", "coordinates": [ -79.402167060617074, 43.724948728993077 ] } },
{ "type": "Feature", "properties": { "LOCATION_N": "York Mills", "STATUS": "Existing", "TECHNOLOGY": "Subway", "NAME": "Line 1: Yonge-University Subway" }, "geometry": { "type": "Point", "coordinates": [ -79.406190185024244, 43.7442623212699 ] } },
{ "type": "Feature", "properties": { "LOCATION_N": "Sheppard-Yonge", "STATUS": "Existing", "TECHNOLOGY": "Subway", "NAME": "Line 1: Yonge-University Subway" }, "geometry": { "type": "Point", "coordinates": [ -79.410913065363147, 43.761512256519659 ] } },
{ "type": "Feature", "properties": { "LOCATION_N": "North York Centre", "STATUS": "Existing", "TECHNOLOGY": "Subway", "NAME": "Line 1: Yonge-University Subway" }, "geometry": { "type": "Point", "coordinates": [ -79.412764950229203, 43.768830566361849 ] } },
{ "type": "Feature", "properties": { "LOCATION_N": "Finch", "STATUS": "Existing", "TECHNOLOGY": "Subway", "NAME": "Line 1: Yonge-University Subway" }, "geometry": { "type": "Point", "coordinates": [ -79.415559936038903, 43.77976105974269 ] } },
{ "type": "Feature", "properties": { "LOCATION_N": "Spadina", "STATUS": "Existing", "TECHNOLOGY": "Subway", "NAME": "Line 1: Yonge-University Subway" }, "geometry": { "type": "Point", "coordinates": [ -79.404750996169199, 43.668953380517564 ] } },
{ "type": "Feature", "properties": { "LOCATION_N": "Dupont", "STATUS": "Existing", "TECHNOLOGY": "Subway", "NAME": "Line 1: Yonge-University Subway" }, "geometry": { "type": "Point", "coordinates": [ -79.407099012229011, 43.674847616596679 ] } },
{ "type": "Feature", "properties": { "LOCATION_N": "St Clair West", "STATUS": "Existing", "TECHNOLOGY": "Subway", "NAME": "Line 1: Yonge-University Subway" }, "geometry": { "type": "Point", "coordinates": [ -79.415327321541909, 43.683815198607363 ] } },
{ "type": "Feature", "properties": { "LOCATION_N": "Eglinton West", "STATUS": "Existing", "TECHNOLOGY": "Subway", "NAME": "Line 1: Yonge-University Subway" }, "geometry": { "type": "Point", "coordinates": [ -79.435983334475523, 43.698827379459502 ] } },
{ "type": "Feature", "properties": { "LOCATION_N": "Glencairn", "STATUS": "Existing", "TECHNOLOGY": "Subway", "NAME": "Line 1: Yonge-University Subway" }, "geometry": { "type": "Point", "coordinates": [ -79.441171447037419, 43.709531544524253 ] } },
{ "type": "Feature", "properties": { "LOCATION_N": "Lawrence West", "STATUS": "Existing", "TECHNOLOGY": "Subway", "NAME": "Line 1: Yonge-University Subway" }, "geometry": { "type": "Point", "coordinates": [ -79.444178708019507, 43.716055553976354 ] } },
{ "type": "Feature", "properties": { "LOCATION_N": "Yorkdale", "STATUS": "Existing", "TECHNOLOGY": "Subway", "NAME": "Line 1: Yonge-University Subway" }, "geometry": { "type": "Point", "coordinates": [ -79.447857719622519, 43.725606702200366 ] } },
{ "type": "Feature", "properties": { "LOCATION_N": "Wilson", "STATUS": "Existing", "TECHNOLOGY": "Subway", "NAME": "Line 1: Yonge-University Subway" }, "geometry": { "type": "Point", "coordinates": [ -79.449910261920479, 43.734084170140626 ] } },
{ "type": "Feature", "properties": { "LOCATION_N": "Sheppard West", "STATUS": "Existing", "TECHNOLOGY": "Subway", "NAME": "Line 1: Yonge-University Subway" }, "geometry": { "type": "Point", "coordinates": [ -79.462464440168205, 43.750429057882805 ] } },
{ "type": "Feature", "properties": { "LOCATION_N": "Bayview", "STATUS": "Existing", "TECHNOLOGY": "Subway", "NAME": "Line 4: Sheppard Subway" }, "geometry": { "type": "Point", "coordinates": [ -79.387744624099213, 43.766653718810872 ] } },
{ "type": "Feature", "properties": { "LOCATION_N": "Bessarion", "STATUS": "Existing", "TECHNOLOGY": "Subway", "NAME": "Line 4: Sheppard Subway" }, "geometry": { "type": "Point", "coordinates": [ -79.376641294128945, 43.769184034598155 ] } },
{ "type": "Feature", "properties": { "LOCATION_N": "Leslie", "STATUS": "Existing", "TECHNOLOGY": "Subway", "NAME": "Line 4: Sheppard Subway" }, "geometry": { "type": "Point", "coordinates": [ -79.368125286281895, 43.771014600940532 ] } },
{ "type": "Feature", "properties": { "LOCATION_N": "Don Mills", "STATUS": "Existing", "TECHNOLOGY": "Subway", "NAME": "Line 4: Sheppard Subway" }, "geometry": { "type": "Point", "coordinates": [ -79.346964659366932, 43.775133584169403 ] } },
{ "type": "Feature", "properties": { "LOCATION_N": "Downsview Park", "STATUS": "Existing", "TECHNOLOGY": "Subway", "NAME": "Line 1: Yonge-University Subway" }, "geometry": { "type": "Point", "coordinates": [ -79.478323341383998, 43.753596940057854 ] } },
{ "type": "Feature", "properties": { "LOCATION_N": "Finch West", "STATUS": "Existing", "TECHNOLOGY": "Subway", "NAME": "Line 1: Yonge-University Subway" }, "geometry": { "type": "Point", "coordinates": [ -79.490976360383257, 43.763480474801163 ] } },
{ "type": "Feature", "properties": { "LOCATION_N": "York University", "STATUS": "Existing", "TECHNOLOGY": "Subway", "NAME": "Line 1: Yonge-University Subway" }, "geometry": { "type": "Point", "coordinates": [ -79.499635035902017, 43.774118551517475 ] } },
{ "type": "Feature", "properties": { "LOCATION_N": "Pioneer Village", "STATUS": "Existing", "TECHNOLOGY": "Subway", "NAME": "Line 1: Yonge-University Subway" }, "geometry": { "type": "Point", "coordinates": [ -79.511625785974331, 43.77751240607256 ] } },
{ "type": "Feature", "properties": { "LOCATION_N": "Sheppard-Yonge", "STATUS": "Existing", "TECHNOLOGY": "Subway", "NAME": "Line 4: Sheppard Subway" }, "geometry": { "type": "Point", "coordinates": [ -79.410913065363147, 43.761512256519659 ] } },
{ "type": "Feature", "properties": { "LOCATION_N": "Spadina", "STATUS": "Existing", "TECHNOLOGY": "Subway", "NAME": "Line 2: Bloor-Danforth Subway" }, "geometry": { "type": "Point", "coordinates": [ -79.403961630054667, 43.667280215108065 ] } },
{ "type": "Feature", "properties": { "LOCATION_N": "St. George", "STATUS": "Existing", "TECHNOLOGY": "Subway", "NAME": "Line 2: Bloor-Danforth Subway" }, "geometry": { "type": "Point", "coordinates": [ -79.399296390330463, 43.668274801511551 ] } },
{ "type": "Feature", "properties": { "LOCATION_N": "Bloor-Yonge", "STATUS": "Existing", "TECHNOLOGY": "Subway", "NAME": "Line 2: Bloor-Danforth Subway" }, "geometry": { "type": "Point", "coordinates": [ -79.385709721085661, 43.670995266307024 ] } }
]
}
